[
    {
        "deviceCode": "RBRQUARTZ3BPRZERO207600",
        "locationCode": "CDFM",
        "locationName": "Clayoquot Deformation Front Middle",
        "lat": 48.598887,
        "lon": -127.079527,
        "deviceId": 67660,
        "sensors": [
            {
                "sensorId": 77540,
                "sensorName": "AZA Seafloor Pressure"
            },
            {
                "sensorId": 77600,
                "sensorName": "AZA Raw Pressure"
            }
        ]
    },
    {
        "deviceCode": "BPR_BC",
        "locationCode": "CNE20",
        "locationName": "North East 20km",
        "lat": 47.906236,
        "lon": -127.620529,
        "deviceId": 12501,
        "sensors": [
            {
                "sensorId": 4176,
                "sensorName": "Seafloor Pressure"
            },
            {
                "sensorId": 3016,
                "sensorName": "DART Pressure Residual"
            }
        ]
    },
    {
        "deviceCode": "NRCANBPR87",
        "locationCode": "CSE25",
        "locationName": "South East 25km",
        "lat": 47.669787,
        "lon": -127.593355,
        "deviceId": 21502,
        "sensors": [
            {
                "sensorId": 4185,
                "sensorName": "Seafloor Pressure"
            },
            {
                "sensorId": 3136,
                "sensorName": "DART Pressure Residual"
            }
        ]
    },
    {
        "deviceCode": "BPR-1027NW",
        "locationCode": "CW25",
        "locationName": "West 25km",
        "lat": 47.764034,
        "lon": -128.057662,
        "deviceId": 21501,
        "sensors": [
            {
                "sensorId": 4182,
                "sensorName": "Seafloor Pressure"
            },
            {
                "sensorId": 7712,
                "sensorName": "Uncompensated Seafloor Pressure"
            }
        ]
    },
    {
        "deviceCode": "RBRQUARTZ3BPR204484",
        "locationCode": "ENEF",
        "locationName": "Endeavour East",
        "lat": 47.958352,
        "lon": -129.035593,
        "deviceId": 65180,
        "sensors": [
            {
                "sensorId": 71781,
                "sensorName": "Seafloor Pressure"
            },
            {
                "sensorId": 71781,
                "sensorName": "Seafloor Pressure"
            }
        ]
    },
    {
        "deviceCode": "RBRQUARTZ3BPR204483",
        "locationCode": "ENWF",
        "locationName": "West Flank",
        "lat": 47.959888,
        "lon": -129.124356,
        "deviceId": 49700,
        "sensors": [
            {
                "sensorId": 63302,
                "sensorName": "Seafloor Pressure"
            },
            {
                "sensorId": 63302,
                "sensorName": "Seafloor Pressure"
            }
        ]
    },
    {
        "deviceCode": "NRCANBPR05",
        "locationCode": "FGPD",
        "locationName": "Folger Deep",
        "lat": 48.814027,
        "lon": -125.280989,
        "deviceId": 22790,
        "sensors": [
            {
                "sensorId": 8812,
                "sensorName": "Seafloor Pressure"
            },
            {
                "sensorId": 916,
                "sensorName": "DART Pressure Residual"
            }
        ]
    },
    {
        "deviceCode": "NRCANBPR80",
        "locationCode": "KEMF",
        "locationName": "Main Endeavour Field",
        "lat": 47.948583,
        "lon": -129.098678,
        "deviceId": 10703,
        "sensors": [
            {
                "sensorId": 9082,
                "sensorName": "Seafloor Pressure"
            },
            {
                "sensorId": 1511,
                "sensorName": "DART Pressure Residual"
            }
        ]
    },
    {
        "deviceCode": "NRCANBPRBB",
        "locationCode": "KEMO",
        "locationName": "Mothra",
        "lat": 47.924013,
        "lon": -129.10818,
        "deviceId": 32359,
        "sensors": [
            {
                "sensorId": 39079,
                "sensorName": "Seafloor Pressure"
            },
            {
                "sensorId": 39099,
                "sensorName": "DART Pressure Residual"
            }
        ]
    },
    {
        "deviceCode": "RBRQUARTZ3BPRZERO207601",
        "locationCode": "MEFS",
        "locationName": "Main Endeavour Field South",
        "lat": 47.948169,
        "lon": -129.098833,
        "deviceId": 67680,
        "sensors": [
            {
                "sensorId": 77542,
                "sensorName": "AZA Seafloor Pressure"
            },
            {
                "sensorId": 77544,
                "sensorName": "AZA Raw Pressure"
            }
        ]
    },
    {
        "deviceCode": "NRCANBPR52",
        "locationCode": "NC27",
        "locationName": "ODP 1026",
        "lat": 47.762609,
        "lon": -127.75829,
        "deviceId": 22791,
        "sensors": [
            {
                "sensorId": 3762,
                "sensorName": "Seafloor Pressure"
            },
            {
                "sensorId": 1515,
                "sensorName": "DART Pressure Residual"
            }
        ]
    },
    {
        "deviceCode": "RBRQUARTZ3BPR203659",
        "locationCode": "NC89",
        "locationName": "Bullseye",
        "lat": 48.670826,
        "lon": -126.847987,
        "deviceId": 49180,
        "sensors": [
            {
                "sensorId": 62541,
                "sensorName": "Seafloor Pressure"
            },
            {
                "sensorId": 62541,
                "sensorName": "Seafloor Pressure"
            }
        ]
    },
    {
        "deviceCode": "RBRQUARTZ3BPR202320",
        "locationCode": "NCBC",
        "locationName": "Barkley Upper Slope",
        "lat": 48.426754,
        "lon": -126.174691,
        "deviceId": 40460,
        "sensors": [
            {
                "sensorId": 51560,
                "sensorName": "Seafloor Pressure"
            },
            {
                "sensorId": 51560,
                "sensorName": "Seafloor Pressure"
            }
        ]
    },
    {
        "deviceCode": "NRCANBPRB9",
        "locationCode": "NCHR",
        "locationName": "Endeavour North",
        "lat": 47.9735,
        "lon": -129.081861,
        "deviceId": 74480,
        "sensors": [
            {
                "sensorId": 90861,
                "sensorName": "Seafloor Pressure"
            },
            {
                "sensorId": 90883,
                "sensorName": "DART Pressure Residual"
            }
        ]
    },
    {
        "deviceCode": "NRCANBPR83",
        "locationCode": "RCS",
        "locationName": "Endeavour South",
        "lat": 47.933101,
        "lon": -129.098849,
        "deviceId": 20501,
        "sensors": [
            {
                "sensorId": 4179,
                "sensorName": "Seafloor Pressure"
            },
            {
                "sensorId": 8286,
                "sensorName": "DART Pressure Residual"
            }
        ]
    },
    {
        "deviceCode": "CORK-1027C",
        "locationCode": "CBC27",
        "locationName": "ODP 1027C",
        "lat": 47.75645,
        "lon": -127.731117,
        "deviceId": 23150,
        "sensors": [
            {
                "sensorId": 9801,
                "sensorName": "Seafloor Pressure"
            },
            {
                "sensorId": 32448,
                "sensorName": "DART Pressure Residual"
            }
        ]
    },
    {
        "deviceCode": "CORK-1364A",
        "locationCode": "CQS64",
        "locationName": "ODP 1364A",
        "lat": 48.699937,
        "lon": -126.872152,
        "deviceId": 23181,
        "sensors": [
            {
                "sensorId": 11815,
                "sensorName": "Seafloor Pressure"
            },
            {
                "sensorId": 63,
                "sensorName": "DART Pressure Residual"
            }
        ]
    },
    {
        "deviceCode": "CORK-1026",
        "locationCode": "NC27",
        "locationName": "ODP 1026",
        "lat": 47.7626,
        "lon": -127.759212,
        "deviceId": 21301,
        "sensors": [
            {
                "sensorId": 4156,
                "sensorName": "Uncompensated Seafloor Pressure"
            },
            {
                "sensorId": 917,
                "sensorName": "DART Pressure Residual"
            }
        ]
    }
]